City_ID,City,Cloudiness,Country,Date,Humidity,Lat,Lng,Max Temp,Wind Speed
0,new norfolk,20,AU,1528088400,62,-42.78,147.06,55.4,5.82
1,kenai,1,US,1528088160,76,60.55,-151.26,55.4,12.75
2,busselton,64,AU,1528089967,97,-33.64,115.35,66.25,12.21
3,port lincoln,68,AU,1528089967,89,-34.72,135.86,61.21,3.6
4,victoria,75,BN,1528088400,62,5.28,115.24,93.2,4.7
5,torbay,90,CA,1528088400,100,47.66,-52.73,32.0,26.4
6,hermanus,0,ZA,1528089968,94,-34.42,19.24,31.42,3.38
7,hilo,90,US,1528087980,88,19.71,-155.08,75.2,4.7
8,albany,90,US,1528088040,50,42.65,-73.75,57.2,10.29
9,aklavik,75,CA,1528088400,42,68.22,-135.01,64.4,9.17
10,samarai,92,PG,1528089968,100,-10.62,150.67,76.24,12.44
11,praia da vitoria,20,PT,1528088400,93,38.73,-27.07,66.2,9.19
12,yellowknife,75,CA,1528088400,61,62.45,-114.38,50.0,8.05
13,nanortalik,48,GL,1528089969,87,60.14,-45.24,37.0,27.87
14,vanavara,8,RU,1528089969,51,60.35,102.28,67.96,4.72
15,constitucion,0,MX,1528089969,29,23.99,-104.67,64.36,6.96
16,santa cruz,1,US,1528088160,93,36.97,-122.03,69.8,4.7
17,katherine,0,AU,1528088400,11,-14.47,132.26,82.4,12.75
18,vallenar,0,CL,1528089971,63,-28.58,-70.76,34.12,1.92
19,faanui,80,PF,1528089971,100,-16.48,-151.75,80.02,18.03
20,grand gaube,40,MU,1528088400,69,-20.01,57.66,77.0,11.41
21,novoagansk,88,RU,1528089972,81,61.94,76.66,44.83,7.4
22,kingaroy,24,AU,1528089972,75,-26.54,151.84,63.19,7.18
23,vaini,64,IN,1528089972,85,15.34,74.49,78.94,5.28
24,abbeville,0,FR,1528088400,87,50.11,1.83,60.8,3.36
25,castro,44,CL,1528089973,98,-42.48,-73.76,28.0,2.59
26,hirara,40,JP,1528084800,70,24.8,125.28,86.0,2.24
27,port hardy,75,CA,1528088400,93,50.7,-127.42,48.2,3.36
28,hualmay,88,PE,1528089973,95,-11.1,-77.61,61.03,1.25
29,socota,92,PE,1528089973,100,-6.32,-78.7,51.04,2.15
30,butaritari,88,KI,1528089973,100,3.07,172.79,84.25,5.5
31,mataura,32,NZ,1528089973,98,-46.19,168.86,27.55,3.15
32,muroto,75,JP,1528084800,60,33.37,134.14,75.2,9.17
33,naze,80,NG,1528089974,97,5.43,7.07,72.46,3.83
34,ilulissat,12,GL,1528087800,69,69.22,-51.1,33.8,16.11
35,bella union,32,CO,1528089974,91,8.5,-73.35,65.8,1.59
36,ushuaia,8,AR,1528089974,100,-54.81,-68.31,14.05,2.93
37,bluff,0,AU,1528089975,36,-23.58,149.07,74.08,5.73
38,meulaboh,88,ID,1528089975,100,4.14,96.13,84.7,4.83
39,petrodvorets,0,RU,1528086600,55,59.88,29.9,60.8,11.18
40,partizansk,68,RU,1528089975,55,43.13,133.13,72.37,5.39
41,chapleau,92,CA,1528089975,100,47.85,-83.4,54.1,4.16
42,khash,0,IR,1528089976,18,28.22,61.21,94.24,4.16
43,punta arenas,75,CL,1528084800,92,-53.16,-70.91,24.8,4.7
44,upernavik,8,GL,1528089976,99,72.79,-56.15,28.0,14.45
45,qaanaaq,0,GL,1528089976,80,77.48,-69.36,19.54,2.26
46,cape town,0,ZA,1528088400,93,-33.93,18.42,37.4,4.7
47,bella vista,0,AR,1528089977,85,-28.51,-59.05,37.36,4.61
48,saskylakh,88,RU,1528089977,99,71.97,114.09,52.57,6.06
49,pangnirtung,76,CA,1528089977,100,66.15,-65.72,24.76,4.16
50,marsh harbour,0,BS,1528089977,99,26.54,-77.06,79.84,11.21
51,brewster,90,US,1528089540,93,41.76,-70.08,50.0,6.93
52,lompoc,90,US,1528089060,93,34.64,-120.46,59.0,5.82
53,horta,90,ES,1528088400,100,41.43,2.16,59.0,4.83
54,dongying,0,CN,1528089978,47,37.43,118.67,89.65,9.19
55,alice springs,0,AU,1528088400,19,-23.7,133.88,66.2,8.05
56,saint george,20,GR,1528087800,64,39.45,22.34,71.6,5.82
57,puerto ayora,88,EC,1528089979,98,-0.74,-90.35,73.27,11.32
58,port elizabeth,90,US,1528088700,93,39.31,-74.98,57.2,11.41
59,east london,40,ZA,1528088400,71,-33.02,27.91,51.8,6.93
60,nikolskoye,0,RU,1528086600,55,59.7,30.79,60.8,11.18
61,cherskiy,8,RU,1528089980,68,68.75,161.3,45.64,6.51
62,tautira,20,PF,1528088400,83,-17.73,-149.15,77.0,3.36
63,cockburn town,12,TC,1528089980,96,21.46,-71.14,80.47,16.8
64,kapaa,40,US,1528088400,88,22.08,-159.32,77.0,18.34
65,rikitea,80,PF,1528089980,100,-23.12,-134.97,72.01,8.41
66,tarrega,20,ES,1528088400,93,41.65,1.14,60.8,4.7
67,kupang,8,ID,1528089981,69,-10.16,123.6,85.06,13.67
68,beringovskiy,92,RU,1528089981,90,63.05,179.32,35.2,18.03
69,tuatapere,0,NZ,1528089981,100,-46.13,167.69,39.25,0.92
70,kushima,75,JP,1528084800,88,31.5,131.29,78.8,12.75
71,tougue,56,GN,1528089982,98,11.45,-11.68,65.89,3.38
72,dickinson,1,US,1528084560,71,46.88,-102.79,57.2,9.17
73,cayenne,75,GF,1528088400,100,4.94,-52.33,77.0,4.27
74,abu samrah,0,SY,1528089982,63,35.3,37.18,74.17,6.96
75,tomatlan,24,MX,1528089983,96,19.93,-105.25,74.26,0.69
76,coro,0,VE,1528089983,87,11.41,-69.67,78.13,10.2
77,barrow,88,AR,1528089983,86,-38.31,-60.23,36.37,3.04
78,riyadh,64,SA,1528088400,18,24.63,46.72,98.6,3.36
79,mgandu,0,TZ,1528089983,49,-5.96,34.11,66.52,8.97
80,souillac,80,FR,1528088400,93,45.6,-0.6,62.6,6.93
81,bennettsville,40,US,1528088160,88,34.62,-79.68,80.6,6.96
82,yinchuan,0,CN,1528089984,21,38.48,106.21,82.36,8.75
83,geraldton,90,CA,1528088400,100,49.72,-86.95,44.6,8.05
84,nacogdoches,0,US,1528088160,94,31.6,-94.66,77.0,5.95
85,chokurdakh,32,RU,1528089984,100,70.62,147.9,32.95,7.63
86,sao filipe,0,CV,1528089984,100,14.9,-24.5,70.84,11.88
87,atuona,76,PF,1528089984,100,-9.8,-139.03,80.2,16.8
88,port pirie,8,AU,1528088400,72,-33.18,138.01,62.6,8.05
89,georgetown,40,GY,1528084800,100,6.8,-58.16,75.2,2.24
90,osmanabad,0,IN,1528089985,84,18.19,76.04,85.6,8.63
91,puerto escondido,12,MX,1528089985,94,15.86,-97.07,86.77,17.36
92,lebu,0,ET,1528089985,100,8.96,38.73,61.57,3.83
93,pisco,76,PE,1528088400,82,-13.71,-76.2,64.4,3.36
94,ngunguru,64,NZ,1528089986,98,-35.62,174.5,62.02,15.35
95,yar-sale,80,RU,1528089986,97,66.83,70.83,32.68,16.8
96,gornopravdinsk,88,RU,1528089986,68,60.06,69.92,46.54,8.97
97,thompson,90,CA,1528088400,97,55.74,-97.86,33.8,4.7
98,humboldt,12,CA,1528089987,70,52.21,-105.12,47.44,4.16
99,port alfred,12,ZA,1528089987,100,-33.59,26.89,54.64,7.29
100,panjab,0,AF,1528089987,78,34.38,67.02,57.16,1.92
101,jamestown,12,AU,1528089987,54,-33.21,138.6,60.58,6.62
102,mahebourg,40,MU,1528088400,69,-20.41,57.7,77.0,11.41
103,luderitz,0,NA,1528089988,78,-26.65,15.16,52.48,8.41
104,bondo,88,CD,1528089988,99,3.81,23.69,70.84,1.36
105,te anau,36,NZ,1528089988,93,-45.41,167.72,27.55,1.59
106,raudeberg,20,NO,1528087800,66,61.99,5.14,53.6,13.87
107,carnarvon,0,ZA,1528089989,90,-30.97,22.13,28.72,8.63
108,nemuro,20,JP,1528084800,51,43.32,145.57,84.2,6.93
109,aitape,64,PG,1528089989,98,-3.15,142.36,81.64,3.15
110,medicine hat,20,CA,1528088400,45,50.04,-110.68,68.0,11.41
111,cidreira,76,BR,1528089989,100,-30.17,-50.22,53.38,4.38
112,erzin,20,TR,1528087800,69,36.95,36.2,77.0,10.29
113,hobart,20,AU,1528088400,62,-42.88,147.33,55.4,5.82
114,bambous virieux,40,MU,1528088400,69,-20.34,57.76,77.0,11.41
115,rio gallegos,0,AR,1528084800,92,-51.62,-69.22,23.0,4.7
116,ancud,32,CL,1528089990,73,-41.87,-73.83,28.18,1.92
117,komsomolskiy,92,RU,1528089990,99,67.55,63.78,27.37,18.48
118,dikson,92,RU,1528089991,90,73.51,80.55,33.94,20.49
119,santa helena de goias,48,BR,1528089991,72,-17.81,-50.6,71.11,10.76
120,norfolk,90,US,1528088580,88,36.85,-76.29,64.4,14.99
121,pevek,0,RU,1528089991,76,69.7,170.27,39.88,6.17
122,vostok,68,RU,1528089991,56,46.45,135.83,75.16,4.16
123,honiara,20,SB,1528088400,74,-9.43,159.96,86.0,9.17
124,trelew,20,AR,1528089922,83,-43.25,-65.31,24.85,6.06
125,mayo,75,CA,1528088400,93,63.59,-135.9,50.0,2.48
126,thakurgaon,92,BD,1528089992,100,26.02,88.47,79.12,13.22
127,podosinovets,92,RU,1528089992,74,60.28,47.06,51.4,4.61
128,manokwari,76,ID,1528089992,100,-0.87,134.08,82.18,5.61
129,bredasdorp,0,ZA,1528088400,93,-34.53,20.04,39.2,4.7
130,ribeira grande,92,PT,1528089993,96,38.52,-28.7,68.05,7.4
131,salalah,75,OM,1528084200,84,17.01,54.1,86.0,4.7
132,leningradskiy,0,RU,1528089993,95,69.38,178.42,33.04,7.63
133,jimma,92,ET,1528089993,100,7.67,36.84,61.12,2.71
134,pinhao,92,BR,1528089993,92,-25.7,-51.66,49.15,4.94
135,port augusta,0,AU,1528088400,72,-32.49,137.76,62.6,8.05
136,fukue,20,JP,1528086600,69,35.03,136.69,75.2,14.99
137,arraial do cabo,92,BR,1528089994,100,-22.97,-42.02,69.58,13.44
138,synya,48,RU,1528089994,69,65.37,58.04,34.21,4.16
139,scottsbluff,1,US,1528087980,52,41.87,-103.67,66.2,17.22
140,brae,75,GB,1528087800,87,60.4,-1.35,50.0,8.05
141,alugan,80,PH,1528089995,88,12.22,125.48,86.59,8.41
142,dusetos,20,LT,1528089995,67,55.75,25.85,67.69,12.33
143,kodiak,1,US,1528087980,87,39.95,-94.76,60.8,3.36
144,igunga,8,TZ,1528089995,46,-4.28,33.88,74.44,9.19
145,provideniya,90,RU,1528086600,86,64.42,-173.23,39.2,11.18
146,narsaq,100,GL,1528087800,42,60.91,-46.05,62.6,18.34
147,bhadasar,0,IN,1528089996,18,28.3,74.31,105.4,6.85
148,lumajang,32,ID,1528089996,88,-8.14,113.22,82.45,7.52
149,luziania,0,BR,1528088400,87,-16.25,-47.95,51.8,5.61
150,la ronge,20,CA,1528088400,81,55.1,-105.3,42.8,6.93
151,bundaberg,0,AU,1528089996,94,-24.87,152.35,70.3,12.66
152,garowe,0,SO,1528089997,38,8.41,48.48,89.02,21.83
153,iskateley,32,RU,1528089997,100,67.68,53.15,30.07,8.52
154,tiksi,32,RU,1528089997,87,71.64,128.87,51.94,3.04
155,flagstaff,1,US,1528088220,15,35.2,-111.65,80.6,5.82
156,tabuk,44,PH,1528089998,93,17.41,121.44,77.77,1.7
157,nukus,0,UZ,1528086600,11,42.46,59.61,71.6,9.17
158,lavrentiya,92,RU,1528089998,95,65.58,-170.99,33.04,5.17
159,aketi,92,CD,1528089998,100,2.74,23.78,70.39,2.82
160,den helder,90,NL,1528088220,93,52.96,4.76,59.0,5.82
161,buraydah,0,SA,1528084800,23,26.33,43.97,86.0,10.29
162,faya,0,SA,1528088400,47,18.39,42.45,77.0,4.27
163,lata,36,IN,1528089999,81,30.78,78.62,67.87,1.92
164,mitsamiouli,20,KM,1528088400,61,-11.38,43.28,80.6,4.7
165,ballina,0,IE,1528089999,92,54.11,-9.15,55.36,2.71
166,port hedland,0,AU,1528088400,13,-20.31,118.58,86.0,24.16
167,airai,24,TL,1528090000,45,-8.93,125.41,81.73,0.92
168,xam nua,48,LA,1528090000,82,20.42,104.04,76.87,2.48
169,narayanganj,75,BD,1528086600,70,23.62,90.5,89.6,8.05
170,bandarbeyla,0,SO,1528090000,77,9.49,50.81,81.64,27.54
171,jinxiang,24,CN,1528090001,57,35.07,116.31,88.12,8.3
172,chuy,0,UY,1528090001,90,-33.69,-53.46,52.03,9.98
173,ugoofaaru,48,MV,1528090001,100,5.67,73.0,81.28,13.0
174,ahipara,92,NZ,1528090001,100,-35.17,173.16,59.05,9.75
175,matriz de camaragibe,75,BR,1528088400,88,-9.15,-35.52,75.2,1.12
176,tabou,88,CI,1528090001,100,4.42,-7.36,80.02,4.94
177,khatanga,68,RU,1528090002,82,71.98,102.47,56.98,8.75
178,sitka,56,US,1528090002,31,37.17,-99.65,74.08,13.0
179,mar del plata,0,AR,1528090002,100,-46.43,-67.52,31.06,9.64
180,hofn,56,IS,1528090002,96,64.25,-15.21,47.53,3.38
181,morondava,44,MG,1528090002,73,-20.3,44.28,77.14,3.27
182,camacupa,0,AO,1528090003,63,-12.02,17.48,50.59,6.85
183,pochutla,32,MX,1528090003,100,15.74,-96.47,84.34,20.27
184,bethel,90,US,1528087980,76,60.79,-161.76,50.0,9.17
185,tilichiki,80,RU,1528090004,86,60.47,166.1,42.58,9.53
186,ponta do sol,24,BR,1528090004,87,-20.63,-46.0,60.67,6.73
187,rairangpur,75,IN,1528088400,46,22.27,86.18,93.2,3.36
188,port keats,0,AU,1528090004,35,-14.25,129.55,83.98,11.99
189,mangan,88,IN,1528090004,55,27.5,88.54,52.57,1.25
190,abong mbang,76,CM,1528090005,97,3.98,13.18,69.49,2.82
191,kyzyl-suu,48,KG,1528090005,89,42.34,78.0,57.25,4.94
192,vagay,44,RU,1528090005,48,57.94,69.02,53.65,10.98
193,birobidzhan,68,RU,1528090005,51,48.79,132.93,78.94,8.3
194,guerrero negro,64,MX,1528090005,100,27.97,-114.04,57.61,7.85
195,namibe,0,AO,1528090006,98,-15.19,12.15,72.64,3.94
196,mogadishu,75,SO,1528088400,78,2.04,45.34,82.4,13.87
197,longyearbyen,75,NO,1528087800,69,78.22,15.63,37.4,5.82
198,katsuura,75,JP,1528086780,47,33.93,134.5,80.6,11.41
199,husavik,0,CA,1528090006,86,50.56,-96.99,51.67,3.15
200,zarate,76,PE,1528088400,82,-13.68,-76.08,64.4,3.36
201,udarnyy,36,RU,1528090007,61,54.34,42.86,70.57,13.22
202,esperance,20,TT,1528088400,83,10.24,-61.45,77.0,9.17
203,kharhial,0,IN,1528090007,48,20.28,82.77,98.02,10.76
204,rafai,88,CF,1528090007,100,4.95,23.92,72.91,3.49
205,iqaluit,90,CA,1528088400,79,63.75,-68.52,26.6,18.34
206,pokhara,68,NP,1528090008,90,28.21,83.99,71.92,2.71
207,agirish,24,RU,1528090008,53,61.92,63.02,48.79,5.84
208,hobyo,0,SO,1528090008,68,5.35,48.53,82.0,21.61
209,srednekolymsk,88,RU,1528090008,81,67.46,153.71,36.73,6.17
210,ahuimanu,75,US,1528089300,78,21.44,-157.84,80.6,13.87
211,henties bay,48,NA,1528090009,100,-22.12,14.28,55.9,3.15
212,bonthe,68,SL,1528090009,94,7.53,-12.5,78.49,3.83
213,caravelas,64,BR,1528090009,100,-17.73,-39.27,75.79,9.86
214,hare bay,90,CA,1528088400,100,48.86,-53.99,28.4,26.4
215,portland,75,US,1528088160,67,45.52,-122.67,59.0,9.17
216,fort morgan,1,US,1528088100,55,40.25,-103.8,64.4,6.93
217,beranang,75,MY,1528088400,74,2.88,101.87,89.6,6.93
218,kaitangata,36,NZ,1528090010,91,-46.28,169.85,29.44,4.61
219,aquin,0,HT,1528090010,100,18.28,-73.39,80.47,16.13
220,saint-philippe,90,CA,1528088820,82,45.36,-73.48,62.6,19.46
221,mareeba,40,AU,1528088400,50,-16.99,145.42,77.0,16.11
222,valparaiso,1,US,1528089300,52,41.47,-87.06,64.4,16.11
223,thiruvananthapuram,75,IN,1528088400,88,8.48,76.92,82.4,4.7
224,jinchang,0,CN,1528090011,37,38.52,102.19,69.67,3.94
225,jacareacanga,92,BR,1528090011,67,-6.22,-57.76,83.62,2.15
226,oktyabrskoye,92,RU,1528090012,51,56.73,85.44,55.45,11.43
227,killarney,88,AU,1528090012,89,-28.34,152.3,57.25,3.04
228,nanzhang,76,CN,1528090012,52,31.78,111.84,79.12,2.71
229,morant bay,20,JM,1528088400,70,17.88,-76.41,84.2,9.17
230,belmonte,64,PT,1528090012,100,40.36,-7.35,48.52,3.04
231,seymchan,88,RU,1528090013,52,62.93,152.39,42.58,11.65
232,san jose de rio tinto,80,HN,1528090013,91,14.93,-85.7,68.32,2.15
233,marzuq,0,YE,1528090013,20,14.4,46.47,89.92,3.6
234,los llanos de aridane,24,ES,1528088400,77,28.66,-17.92,66.2,14.99
235,avarua,75,CK,1528088400,73,-21.21,-159.78,73.4,10.29
236,vila franca do campo,75,PT,1528088400,100,37.72,-25.43,66.2,17.22
237,hanyang,0,CN,1528090014,34,32.14,105.51,82.18,2.93
238,leh,0,IN,1528090014,97,34.16,77.58,23.05,1.7
239,tuktoyaktuk,75,CA,1528088400,54,69.44,-133.03,55.4,13.87
240,rawson,20,AR,1528090014,83,-43.3,-65.11,24.85,6.06
241,sorland,75,NO,1528087800,80,67.67,12.69,41.0,27.51
242,lorengau,68,PG,1528090015,100,-2.02,147.27,82.0,6.51
243,lagoa,75,PT,1528088400,77,37.14,-8.45,59.0,4.7
244,kavieng,48,PG,1528090015,100,-2.57,150.8,83.17,6.06
245,rio brilhante,92,BR,1528090015,87,-21.8,-54.54,59.14,4.5
246,hithadhoo,48,MV,1528090015,100,-0.6,73.08,83.98,10.2
247,the valley,40,AI,1528088400,74,18.22,-63.06,80.6,10.29
248,matay,0,EG,1528090016,54,28.42,30.79,77.59,8.41
249,chumikan,64,RU,1528090016,81,54.72,135.31,50.05,4.72
250,gadsden,1,US,1528088160,88,34.01,-86.01,73.4,5.82
251,nizhniy tsasuchey,80,RU,1528090016,81,50.52,115.13,55.45,21.72
252,praya,75,ID,1528088400,52,-8.71,116.27,89.6,4.7
253,qandala,0,SO,1528090017,50,11.47,49.87,90.1,3.6
254,sayyan,92,YE,1528090017,23,15.17,44.32,75.97,4.38
255,kavaratti,92,IN,1528090017,100,10.57,72.64,78.67,16.46
256,wanaka,0,NZ,1528090017,97,-44.7,169.14,22.6,2.04
257,sutton,90,CA,1528088940,100,44.31,-79.37,60.8,3.36
258,antalaha,48,MG,1528090018,94,-14.9,50.28,75.7,12.88
259,goderich,44,CA,1528090018,100,43.74,-81.71,54.73,14.67
260,morrinhos,0,BR,1528090018,80,-17.73,-49.11,59.68,3.15
261,grindavik,90,IS,1528086600,87,63.84,-22.43,44.6,3.36
262,matamoros,1,US,1528087980,88,25.87,-97.51,82.4,8.05
263,gizo,20,IL,1528087800,69,31.8,34.94,75.2,2.24
264,san jose,24,PH,1528090019,61,15.79,120.99,92.17,2.37
265,hasaki,40,JP,1528086600,54,35.73,140.83,78.8,8.05
266,sao joao da barra,76,BR,1528090020,100,-21.64,-41.05,71.92,21.27
267,aljezur,92,PT,1528089860,100,37.31,-8.8,60.04,9.64
268,scarborough,88,GB,1528087800,93,54.28,-0.41,55.4,6.93
269,russell,75,AR,1528084800,87,-33.01,-68.8,42.8,4.7
270,hatillo,20,PR,1528087800,88,18.49,-66.83,75.2,5.82
271,kyren,92,RU,1528090021,68,51.68,102.13,54.82,2.59
272,doha,0,QA,1528084800,59,25.29,51.53,95.0,4.7
273,umm lajj,0,SA,1528090021,81,25.02,37.27,81.55,5.06
274,gold coast,40,AU,1528088400,68,-28.0,153.41,66.2,12.75
275,bathsheba,20,BB,1528088400,74,13.22,-59.52,78.8,20.8
276,glenwood springs,1,US,1528088160,96,39.55,-107.33,62.6,6.93
277,san carlos de bariloche,75,AR,1528084800,80,-41.13,-71.31,35.6,4.7
278,talnakh,56,RU,1528090022,91,69.49,88.39,36.37,17.58
279,teya,40,MX,1528087560,74,21.05,-89.07,78.8,4.7
280,isangel,88,VU,1528090022,100,-19.55,169.27,75.34,6.73
281,mugur-aksy,24,RU,1528090023,24,50.38,90.44,55.0,2.59
282,klaksvik,56,FO,1528087800,87,62.23,-6.59,44.6,16.11
283,talcahuano,0,CL,1528084800,93,-36.72,-73.12,41.0,5.82
284,polyarnyye zori,88,RU,1528090023,89,67.37,32.5,44.2,5.61
285,parabel,92,RU,1528090023,90,58.71,81.5,47.26,11.32
286,mogocha,92,RU,1528090023,99,53.73,119.76,54.82,3.71
287,coahuayana,88,MX,1528090024,89,18.62,-100.35,66.16,1.92
288,nelson bay,75,AU,1528088400,87,-32.72,152.14,57.2,10.29
289,raton,1,US,1528088040,87,36.9,-104.44,55.4,4.7
290,kruisfontein,0,ZA,1528090024,100,-34.0,24.73,51.49,5.61
291,barpathar,68,IN,1528090024,77,26.3,93.87,83.98,2.93
292,yangambi,68,CD,1528090025,97,0.77,24.47,73.0,5.06
293,katobu,80,ID,1528090025,86,-4.94,122.53,83.89,6.51
294,green river,1,US,1528088040,22,41.53,-109.47,64.4,10.29
295,teruel,0,ES,1528088400,100,40.34,-1.11,59.0,3.36
296,kenora,5,CA,1528089300,71,49.76,-94.48,55.4,6.93
297,boa vista,75,BR,1528088400,94,2.82,-60.67,77.0,4.7
298,roma,20,IT,1528088100,56,41.89,12.48,69.8,14.99
299,half moon bay,20,US,1528088160,67,37.46,-122.43,75.2,14.99
300,tessalit,68,ML,1528090027,17,20.2,1.01,88.66,12.66
301,barranca,92,PE,1528090027,100,-10.75,-77.76,62.92,8.41
302,kissidougou,92,GN,1528090027,99,9.19,-10.1,68.14,6.4
303,horasan,76,TR,1528090027,100,40.04,42.16,50.5,3.27
304,tezu,88,IN,1528090027,78,27.93,96.16,75.61,1.7
305,chapais,80,CA,1528090028,39,49.78,-74.86,53.65,13.56
306,itarema,80,BR,1528090028,96,-2.92,-39.92,76.96,8.63
307,leticia,75,CO,1528088400,94,-4.21,-69.94,73.4,4.7
308,san patricio,0,PY,1528090028,84,-26.98,-56.83,46.99,3.71
309,navahrudak,0,BY,1528090028,73,53.59,25.82,71.02,6.96
310,orlik,92,RU,1528090028,100,52.51,99.83,39.88,2.48
311,chachapoyas,48,PE,1528090029,93,-6.23,-77.87,57.52,2.48
312,denpasar,68,ID,1528089766,84,-8.65,115.22,79.75,0.81
313,buchanan,40,LR,1528088400,94,5.88,-10.05,75.2,3.94
314,kamenka,20,RU,1528090029,59,53.19,44.05,67.6,16.46
315,hunchun,80,CN,1528090029,62,42.86,130.36,74.98,1.92
316,xinmin,0,CN,1528086600,44,42.0,122.83,78.8,11.18
317,dufftown,90,GB,1528087800,93,57.45,-3.13,53.6,3.36
318,hami,0,CN,1528090030,27,42.84,93.51,92.08,9.98
319,hambantota,56,LK,1528090030,95,6.12,81.12,81.82,19.04
320,pedernales,88,EC,1528090030,91,0.07,-80.05,73.72,3.15
321,san cristobal,75,EC,1528088400,81,-0.39,-78.55,53.6,9.17
322,ginda,36,IN,1528090031,81,30.69,78.49,67.87,1.92
323,kudahuvadhoo,88,MV,1528090031,100,2.67,72.89,82.99,10.65
324,aneho,20,TG,1528088400,88,6.23,1.6,78.8,4.7
325,puruandiro,5,MX,1528087680,49,20.08,-101.5,68.0,4.7
326,shakawe,0,BW,1528090032,49,-18.36,21.84,58.6,9.75
327,flinders,75,AU,1528084800,63,-34.58,150.85,60.8,11.41
328,gargzdai,0,LT,1528087800,77,55.71,21.4,66.2,4.7
329,chicama,90,PE,1528088400,93,-7.84,-79.15,64.4,5.82
330,ondjiva,0,AO,1528090032,56,-17.07,15.73,53.2,7.18
331,vikulovo,12,RU,1528090033,48,55.07,40.96,74.17,14.56
332,acapulco,90,MX,1528087200,94,16.86,-99.88,75.2,5.82
333,sfantu gheorghe,0,RO,1528088400,93,44.65,26.83,66.2,3.36
334,huarmey,48,PE,1528090033,91,-10.07,-78.15,58.42,2.15
335,porto belo,0,BR,1528088400,82,-27.15,-48.54,57.2,4.7
336,chambersburg,90,US,1528088880,93,39.94,-77.66,59.0,4.7
337,sur,0,OM,1528090034,82,22.57,59.53,89.2,3.83
338,chuguyevka,48,RU,1528090034,50,44.17,133.87,77.59,7.52
339,el salto,5,MX,1528087680,47,20.52,-103.18,78.8,9.17
340,tiznit,0,MA,1528090034,97,29.7,-9.73,57.88,2.71
341,mana,0,RS,1528088400,88,43.52,20.24,62.6,1.12
342,mekhe,0,SN,1528090035,98,15.11,-16.62,66.7,7.4
343,mehamn,75,NO,1528087800,86,71.03,27.85,41.0,16.11
344,grootfontein,0,NA,1528090035,68,-19.56,18.1,46.81,4.72
345,margherita,90,IN,1528086600,83,27.29,95.67,82.4,2.24
346,togul,36,RU,1528090036,60,53.47,85.91,66.16,13.0
347,arlit,48,NE,1528090036,24,18.74,7.39,83.08,6.17
348,dapaong,56,TG,1528090036,85,10.86,0.2,77.05,4.38
349,elizabeth city,90,US,1528089300,93,36.3,-76.22,68.0,6.93
350,presidencia roque saenz pena,36,AR,1528090036,81,-26.79,-60.44,37.9,4.94
351,gordeyevka,0,RU,1528090037,59,52.96,31.97,71.65,7.74
352,nouadhibou,12,MR,1528088400,82,20.93,-17.03,64.4,17.22
353,quthing,32,LS,1528090037,100,-30.4,27.7,22.96,2.37
354,tateyama,20,JP,1528084800,39,36.66,137.31,82.4,9.17
355,alofi,76,NU,1528088400,83,-19.06,-169.92,77.0,5.82
356,paracuru,40,BR,1528088400,88,-3.41,-39.03,78.8,5.82
357,chengde,0,CN,1528090038,29,40.97,117.93,82.27,9.19
358,saint-georges,68,CA,1528090038,56,46.12,-70.67,50.77,6.62
359,plock,0,PL,1528089804,61,52.55,19.71,74.08,4.38
360,kahului,40,US,1528088160,88,20.89,-156.47,77.0,18.34
361,vila velha,40,BR,1528088400,88,-3.71,-38.6,78.8,5.82
362,bam,0,IR,1528089897,11,29.11,58.36,97.48,9.19
363,oktyabrskiy,0,RU,1528086600,59,55.61,37.97,62.6,13.42
364,binay,12,PH,1528090039,86,13.5,122.6,89.38,3.94
365,cabra,20,ES,1528088400,93,37.47,-4.43,55.4,2.26
366,sao geraldo do araguaia,80,BR,1528090039,74,-6.4,-48.55,77.23,9.19
367,champerico,75,MX,1528087320,94,16.38,-93.6,71.6,1.7
368,brekstad,75,NO,1528087800,81,63.69,9.67,48.2,10.29
369,nigde,0,TR,1528090040,47,37.97,34.68,64.0,3.04
370,norman wells,75,CA,1528088400,58,65.28,-126.83,57.2,8.05
371,vao,76,EE,1528090040,82,59.1,26.19,60.4,9.75
372,kirkwall,92,GB,1528087800,87,58.98,-2.96,50.0,9.17
373,moyale,92,ET,1528090040,97,3.52,39.05,66.25,4.38
374,putyatino,8,RU,1528090041,48,54.16,41.12,73.09,16.91
375,ponta delgada,75,PT,1528088400,100,37.73,-25.67,66.2,17.22
376,khuzdar,0,PK,1528090041,12,27.8,66.62,102.97,4.61
377,delhi,0,IN,1528086600,39,28.65,77.22,98.6,5.82
378,sovetskiy,76,RU,1528090041,100,56.76,48.47,59.5,9.86
379,mae sai,75,MM,1528088400,70,20.44,99.89,89.6,3.36
380,madhipura,0,IN,1528090042,62,25.92,86.78,91.9,15.01
381,tasiilaq,88,GL,1528087800,86,65.61,-37.64,33.8,3.36
382,maragogi,92,BR,1528090042,98,-9.01,-35.22,75.43,8.41
383,minudasht,36,IR,1528090042,90,37.23,55.37,69.31,3.94
384,sisimiut,80,GL,1528090042,93,66.94,-53.67,25.12,2.15
385,okhotsk,0,RU,1528090043,68,59.36,143.24,51.94,2.82
386,carovigno,0,IT,1528088100,56,40.71,17.66,71.6,3.36
387,paamiut,92,GL,1528090043,91,61.99,-49.67,38.26,3.71
388,hamilton,75,BM,1528088100,88,32.3,-64.78,77.0,11.41
389,aasiaat,24,GL,1528090044,93,68.71,-52.87,30.97,4.72
390,creston,1,US,1528089300,67,41.06,-94.36,60.8,4.7
391,sabinas hidalgo,0,MX,1528090044,42,26.51,-100.18,83.71,9.64
392,kamareddi,0,IN,1528090044,49,18.32,78.34,96.31,9.08
393,bereza,0,UA,1528090044,78,51.73,33.88,68.5,9.08
394,puerto el triunfo,40,SV,1528088100,83,13.27,-88.55,78.8,2.24
395,sydney,75,AU,1528088400,82,-33.85,151.22,64.4,17.22
396,broken hill,0,AU,1528090045,59,-31.97,141.45,60.22,11.77
397,rujewa,0,TZ,1528090045,58,-8.7,34.38,61.75,5.39
398,yumen,0,CN,1528090045,21,40.29,97.04,82.72,3.49
399,moerai,8,PF,1528090045,100,-22.43,-151.33,74.8,16.35
400,yulara,0,AU,1528088400,11,-25.24,130.99,69.8,10.29
401,cherepovets,32,RU,1528090046,56,59.13,37.92,61.84,16.46
402,lebyazhye,0,RU,1528086600,55,59.96,29.42,60.8,11.18
403,cabedelo,75,BR,1528089000,94,-6.97,-34.84,73.4,8.05
404,dicabisagan,24,PH,1528090047,90,17.08,122.42,86.14,5.61
405,kulhudhuffushi,80,MV,1528090047,100,6.62,73.07,81.46,15.23
406,saryg-sep,44,RU,1528090047,56,51.49,95.55,54.1,3.38
407,abu dhabi,0,AE,1528084800,41,24.47,54.37,93.2,13.87
408,northam,20,GB,1528087800,93,51.04,-4.21,60.8,2.24
409,tayu,20,JP,1528086600,69,35.06,136.67,75.2,14.99
410,ouro preto do oeste,0,BR,1528090048,74,-10.75,-62.22,65.44,5.28
411,tshane,0,BW,1528090048,41,-24.02,21.87,42.22,2.93
412,hay river,20,CA,1528088400,75,60.82,-115.79,44.6,5.82
413,tsabong,0,BW,1528090048,59,-26.02,22.4,35.65,2.93
414,trinidad,68,UY,1528090048,89,-33.52,-56.9,44.92,8.52
415,port hawkesbury,1,CA,1528088400,99,45.62,-61.36,32.0,5.82
416,nuevo progreso,75,US,1528088100,83,26.05,-97.95,82.4,12.75
417,dickson,1,US,1528088160,88,36.08,-87.39,69.8,3.15
418,balabac,0,PH,1528090049,100,7.99,117.06,85.78,3.27
419,zaraza,0,VE,1528090049,84,9.35,-65.33,76.87,6.17
420,nantucket,90,US,1528089540,100,41.28,-70.1,48.2,11.41
421,makurdi,56,NG,1528090050,100,7.73,8.54,72.46,3.94
422,pokaran,0,IN,1528090050,32,26.93,71.92,100.0,15.46
423,cabo san lucas,20,MX,1528087260,78,22.89,-109.91,75.2,6.4
424,palmas de monte alto,32,BR,1528090050,86,-14.26,-43.16,69.94,8.52
425,nobeoka,76,JP,1528090050,75,32.66,131.66,70.12,2.93
426,clyde river,90,CA,1528088700,92,70.47,-68.59,28.4,6.93
427,fare,100,PF,1528090051,100,-16.7,-151.02,78.76,15.79
428,kaka,0,TM,1528090051,60,37.35,59.62,69.04,5.61
429,prince george,90,CA,1528088400,87,53.92,-122.75,46.4,8.05
430,gubkinskiy,92,RU,1528090051,100,64.43,76.5,43.93,11.88
431,chor,0,PK,1528090051,38,25.52,69.77,99.82,18.81
432,portlethen,90,GB,1528087800,93,57.05,-2.13,50.0,10.29
433,aykhal,0,RU,1528090052,52,65.95,111.51,65.26,10.42
434,petropavlovsk-kamchatskiy,76,RU,1528086600,27,53.05,158.65,64.4,22.37
435,talas,0,TR,1528087800,62,38.69,35.55,57.2,1.12
436,mahmudabad,48,IR,1528090052,100,36.63,52.26,65.44,3.38
437,dzhebariki-khaya,20,RU,1528090053,30,62.22,135.8,63.1,3.94
438,longview,1,US,1528088100,83,32.5,-94.74,77.0,5.82
439,jalu,0,LY,1528090053,29,29.03,21.55,78.22,4.05
440,teguldet,76,RU,1528090053,35,57.31,88.17,60.31,9.19
441,kilindoni,0,TZ,1528090053,97,-7.91,39.67,79.48,15.9
442,dogondoutchi,20,NE,1528090053,82,13.64,4.03,76.96,3.71
443,severo-kurilsk,92,RU,1528090054,92,50.68,156.12,41.32,4.38
444,campo verde,75,PE,1528088400,94,-8.47,-74.81,68.0,9.17
445,urucara,20,BR,1528090054,89,-2.54,-57.76,76.78,2.15
446,walvis bay,0,NA,1528088400,61,-22.95,14.51,50.0,5.73
447,lamu,76,ID,1528090054,91,0.57,122.3,80.56,2.93
448,shelburne,90,CA,1528088940,100,44.08,-80.2,62.6,3.36
449,tallahassee,75,US,1528089300,83,30.44,-84.28,78.8,3.36
450,baykit,36,RU,1528090055,77,61.68,96.39,53.47,4.94
451,adrar,8,DZ,1528088400,21,27.87,-0.29,80.6,5.82
452,aswan,0,EG,1528084800,31,24.09,32.9,77.0,1.12
453,yerbogachen,0,RU,1528090055,42,61.28,108.01,66.97,4.61
454,inhambane,75,MZ,1528088400,88,-23.87,35.38,66.2,6.93
455,mount isa,0,AU,1528088400,18,-20.73,139.49,71.6,11.41
456,helong,32,CN,1528090056,82,25.94,116.13,81.19,3.49
457,esmeraldas,0,BR,1528088400,77,-19.76,-44.31,64.4,8.05
458,ha tinh,32,VN,1528089855,100,18.33,105.9,83.62,14.23
459,verkhoyansk,92,RU,1528090057,98,67.55,133.39,48.07,3.6
460,camacari,40,BR,1528088400,78,-12.7,-38.32,80.6,9.17
461,kargasok,92,RU,1528090057,97,59.06,80.87,47.71,8.97
462,diego de almagro,0,CL,1528090057,81,-26.39,-70.05,45.01,1.48
463,alekseyevsk,76,RU,1528090057,48,57.84,108.35,63.01,6.4
464,hof,1,DE,1528088160,100,50.32,11.92,57.2,4.61
465,kvarkeno,0,RU,1528090058,62,52.08,59.73,68.32,18.25
466,dingle,32,PH,1528090058,73,11.0,122.67,87.76,6.17
467,staryy nadym,92,RU,1528090059,97,65.61,72.68,35.83,11.43
468,saint-pierre,0,FR,1528088400,93,48.95,4.24,62.6,5.82
469,poum,0,MK,1528084800,93,41.28,20.71,50.0,2.24
470,vardo,90,US,1528088880,93,39.62,-77.74,59.0,4.7
471,merauke,64,ID,1528090060,73,-8.49,140.4,83.35,12.55
472,havoysund,75,NO,1528087800,100,71.0,24.66,41.0,13.87
473,port arthur,20,US,1528089300,83,29.9,-93.93,75.2,6.85
474,berlevag,75,NO,1528087800,86,70.86,29.09,41.0,16.11
475,cam ranh,92,VN,1528090061,100,11.92,109.15,77.14,10.2
476,jiwani,0,PK,1528090061,72,25.05,61.74,90.37,7.29
477,ingraj bazar,80,IN,1528090061,99,25.0,88.15,78.49,11.43
478,anadyr,90,RU,1528086600,100,64.73,177.51,37.4,20.13
479,elat,80,CM,1528090061,96,2.91,11.16,71.65,2.93
480,shetpe,0,KZ,1528090062,23,44.14,52.16,77.14,9.08
481,miri,48,NG,1528090062,91,10.31,9.75,70.84,3.04
482,bahia honda,44,CU,1528090062,92,22.9,-83.16,75.25,3.27
483,inirida,88,CO,1528090062,97,3.87,-67.92,73.9,0.92
484,nome,1,US,1528088100,83,30.04,-94.42,75.2,6.93
485,altstatten,0,CH,1528087800,77,47.38,9.55,62.6,2.24
486,senneterre,90,CA,1528088700,93,48.39,-77.24,53.6,6.93
487,bambanglipuro,76,ID,1528090063,48,-7.95,110.28,91.9,3.6
488,cancun,75,MX,1528087200,100,21.17,-86.85,75.2,3.94
489,burnie,8,AU,1528090063,100,-41.05,145.91,55.9,13.78
490,kansanshi,0,ZM,1528090064,62,-12.1,26.43,53.47,9.75
491,grafton,68,AU,1528090064,91,-29.69,152.93,59.77,3.94
492,richmond,75,CA,1528088400,81,49.16,-123.14,55.4,9.17
493,vertientes,75,CU,1528087800,100,21.26,-78.15,73.4,3.36
494,elumalai,40,IN,1528088400,59,9.86,77.7,91.4,3.36
495,eydhafushi,48,MV,1528090065,100,5.1,73.07,81.28,13.0
496,mgachi,0,RU,1528090065,82,51.05,142.27,55.36,3.27
497,verkhniy tagil,76,RU,1528090065,65,57.37,59.96,52.03,6.51
498,fortuna,0,ES,1528088400,82,38.18,-1.13,62.6,3.36
499,tieli,88,CN,1528090066,61,46.98,128.05,69.22,10.98
500,mount gambier,80,AU,1528090066,97,-37.83,140.78,52.3,4.16
501,pitimbu,75,BR,1528089000,94,-7.47,-34.81,73.4,8.05
502,laguna,0,MX,1528090066,70,27.52,-110.01,76.15,2.37
503,hailey,20,US,1528087800,58,43.52,-114.32,57.2,8.05
504,kjollefjord,75,NO,1528087800,86,70.95,27.35,41.0,16.11
505,genhe,0,CN,1528090067,49,50.78,121.52,62.02,9.31
506,oranjemund,0,ZA,1528090067,93,-28.55,16.43,60.04,17.58
507,lulea,0,SE,1528087800,43,65.58,22.15,50.0,24.16
508,ocosingo,92,MX,1528090067,95,16.91,-92.09,63.82,2.04
509,timoteo,88,BR,1528090067,83,-19.58,-42.64,66.16,5.84
510,chingirlau,64,KZ,1528090068,40,51.09,54.08,71.2,16.35
511,erie,75,US,1528088160,72,42.13,-80.09,64.4,11.41
512,port-cartier,5,CA,1528088400,69,50.03,-66.88,33.8,8.05
513,egvekinot,92,RU,1528090068,96,66.32,-179.17,35.29,2.26
514,port blair,92,IN,1528089783,100,11.67,92.75,77.32,14.45
515,atar,0,MR,1528090068,44,20.52,-13.05,72.55,3.83
516,gifhorn,75,DE,1528087800,93,52.48,10.54,60.8,2.24
517,saldanha,64,PT,1528090069,84,41.42,-6.55,51.4,6.4
518,avera,1,US,1528088100,73,33.19,-82.53,82.4,5.82
519,tura,56,IN,1528090069,96,25.52,90.21,80.47,2.26
520,basna,0,IN,1528090069,24,25.97,73.75,101.17,14.0
521,samoded,92,RU,1528090070,99,63.61,40.52,44.65,9.53
522,nishihara,1,JP,1528088160,30,35.74,139.53,84.2,3.36
523,kyshtovka,12,RU,1528090070,67,56.56,76.62,56.26,16.24
524,tombouctou,0,ML,1528090070,43,16.77,-3.01,85.69,16.24
525,mangrol,0,IN,1528090070,22,25.33,76.51,105.4,16.91
526,tromso,75,NO,1528087800,75,69.65,18.96,41.0,14.99
527,muros,75,ES,1528088400,100,42.77,-9.06,50.0,3.36
528,srostki,32,RU,1528090071,51,52.42,85.7,68.68,13.67
529,dudinka,88,RU,1528090071,92,69.41,86.18,36.46,22.5
530,bilma,12,NE,1528090071,20,18.69,12.92,82.0,3.94
531,bad kreuznach,40,DE,1528088160,100,49.84,7.87,66.2,4.7
532,san quintin,40,PH,1528084800,63,17.54,120.52,91.4,9.17
533,porto novo,40,BR,1528088400,87,-23.68,-45.44,57.2,2.93
534,tanhacu,64,BR,1528090072,100,-14.02,-41.25,66.61,2.93
535,harper,1,US,1528088100,61,30.3,-99.24,82.4,6.62
536,kingsland,1,US,1528088100,74,30.8,-81.69,80.6,11.41
537,tevriz,56,RU,1528090073,77,57.51,72.4,47.71,9.98
538,labuhan,20,ID,1528090073,67,-2.54,115.51,87.67,3.15
539,vestmannaeyjar,68,IS,1528090073,98,63.44,-20.27,46.81,3.04
540,komsomolskoye,20,UA,1528090073,79,45.02,34.02,64.36,2.37
541,aquiraz,40,BR,1528088400,88,-3.9,-38.39,78.8,5.82
542,monroe,90,US,1528089480,67,41.91,-83.4,64.4,12.75
543,bubaque,0,GW,1528088400,74,11.28,-15.83,78.8,4.7
544,keetmanshoop,0,NA,1528088400,60,-26.57,18.15,42.8,2.82
545,kayes,88,ML,1528090074,78,14.44,-11.44,77.68,8.97
546,wells,0,GB,1528087800,100,51.21,-2.64,60.8,8.05
547,rybnaya sloboda,0,RU,1528086600,87,55.46,50.14,60.8,6.71
548,muzhi,36,RU,1528090075,94,65.4,64.7,34.12,13.22
549,abha,0,SA,1528088400,47,18.22,42.5,77.0,2.37
550,pedana,0,IN,1528088400,41,16.26,81.15,96.8,6.93
551,berdigestyakh,0,RU,1528090075,30,62.1,126.7,68.05,3.71
552,nurota,0,UZ,1528086600,18,40.56,65.69,73.4,6.93
553,port-gentil,80,GA,1528089801,99,-0.72,8.78,77.86,9.31
554,la plata,0,AR,1528088400,87,-34.92,-57.95,50.0,2.24
